{"type":"FeatureCollection","features":[{"type":"Feature","properties":{"name":"Sussis G\u00e5rdsbageri","id":2354,"link":"https:\/\/www.fjardhundraland.se\/plats\/sussis-gardsbageri\/","marker-color":"#f00","marker-size":"small"},"geometry":{"type":"Point","coordinates":[17.443792147221302,59.66696400459665]}},{"type":"Feature","properties":{"name":"Fr\u00f6slunda ekog\u00e5rd","id":1486,"link":"https:\/\/www.fjardhundraland.se\/plats\/froslunda-ekogard\/","marker-color":"#f00","marker-size":"small"},"geometry":{"type":"Point","coordinates":[16.91101376137692,59.81606259597754]}},{"type":"Feature","properties":{"name":"Resta G\u00e5rd","id":1826,"link":"https:\/\/www.fjardhundraland.se\/plats\/resta-gard\/","marker-color":"#f00","marker-size":"small"},"geometry":{"type":"Point","coordinates":[17.21307630000001,59.7757599]}},{"type":"Feature","properties":{"name":"Kromsta lantbod","id":1664,"link":"https:\/\/www.fjardhundraland.se\/plats\/kromsta-lantbod\/","marker-color":"#f00","marker-size":"small"},"geometry":{"type":"Point","coordinates":[17.246612381219506,59.67402674088364]}},{"type":"Feature","properties":{"name":"Franz\u00e9ns charkuterier","id":2312,"link":"https:\/\/www.fjardhundraland.se\/plats\/franzens-charkuterier\/","marker-color":"#f00","marker-size":"small"},"geometry":{"type":"Point","coordinates":[17.230253219604492,59.71707495825027]}},{"type":"Feature","properties":{"name":"Caf\u00e9 Samt","id":1818,"link":"https:\/\/www.fjardhundraland.se\/plats\/cafe-samt\/","marker-color":"#f00","marker-size":"small"},"geometry":{"type":"Point","coordinates":[17.0799753,59.6365828]}},{"type":"Feature","properties":{"name":"Gula Stallet Mat &#038; Rum","id":2304,"link":"https:\/\/www.fjardhundraland.se\/plats\/gula-stallet-butik-kafe\/","marker-color":"#f00","marker-size":"small"},"geometry":{"type":"Point","coordinates":[16.885986000000003,59.599157]}},{"type":"Feature","properties":{"name":"Hallonparken","id":3610,"link":"https:\/\/www.fjardhundraland.se\/plats\/hallonparken\/","marker-color":"#f00","marker-size":"small"},"geometry":{"type":"Point","coordinates":[17.46436170000004,59.67346939999999]}},{"type":"Feature","properties":{"name":"H\u00e4st och gr\u00f6nsaksbonden","id":3606,"link":"https:\/\/www.fjardhundraland.se\/plats\/hast-och-gronsaksbonden\/","marker-color":"#f00","marker-size":"small"},"geometry":{"type":"Point","coordinates":[16.8911903621796,59.59757093531449]}},{"type":"Feature","properties":{"name":"M\u00e4lby tr\u00e4dg\u00e5rd","id":1729,"link":"https:\/\/www.fjardhundraland.se\/plats\/malby-tradgard\/","marker-color":"#f00","marker-size":"small"},"geometry":{"type":"Point","coordinates":[16.94325630000003,59.74055920000001]}},{"type":"Feature","properties":{"name":"Pekoe ekologiskt te","id":1582,"link":"https:\/\/www.fjardhundraland.se\/plats\/pekoe-ekologiskt-te\/","marker-color":"#f00","marker-size":"small"},"geometry":{"type":"Point","coordinates":[17.108475,59.814161]}},{"type":"Feature","properties":{"name":"S\u00f6rg\u00e5rden gr\u00f6nt","id":1881,"link":"https:\/\/www.fjardhundraland.se\/plats\/sorgarden-gront\/","marker-color":"#f00","marker-size":"small"},"geometry":{"type":"Point","coordinates":[17.03507423400879,59.79463221317527]}},{"type":"Feature","properties":{"name":"Skogsbackens ost","id":1855,"link":"https:\/\/www.fjardhundraland.se\/plats\/skogsbackens-ost\/","marker-color":"#f00","marker-size":"small"},"geometry":{"type":"Point","coordinates":[17.409323200000017,59.71785320000001]}},{"type":"Feature","properties":{"name":"Sunnansj\u00f6 g\u00e5rd","id":2872,"link":"https:\/\/www.fjardhundraland.se\/plats\/sunnansjo-gard\/","marker-color":"#f00","marker-size":"small"},"geometry":{"type":"Point","coordinates":[17.158667899999955,59.86214769999999]}},{"type":"Feature","properties":{"name":"Alsta tr\u00e4dg\u00e5rdar","id":2341,"link":"https:\/\/www.fjardhundraland.se\/plats\/alsta-tradgardar\/","marker-color":"#f00","marker-size":"small"},"geometry":{"type":"Point","coordinates":[17.250101566314697,59.75212031158872]}}]}