{"type":"FeatureCollection","features":[{"type":"Feature","properties":{"name":"Hornuddens tr\u00e4dg\u00e5rd","id":5833,"link":"https:\/\/www.fjardhundraland.se\/en_us\/plats\/hornuddens-tradgard\/","marker-color":"#f00","marker-size":"small"},"geometry":{"type":"Point","coordinates":[17.03254222869873,59.43944594258526]}},{"type":"Feature","properties":{"name":"Ladan &#8211; \u00d6r\u00e5kers kulturcentrum","id":5815,"link":"https:\/\/www.fjardhundraland.se\/en_us\/plats\/ladan-orakers-kulturcentrum\/","marker-color":"#f00","marker-size":"small"},"geometry":{"type":"Point","coordinates":[17.740302085876465,59.4629599974813]}},{"type":"Feature","properties":{"name":"Pepparrotsstadens Tr\u00e4dg\u00e5rd &#038; Hantverk","id":5614,"link":"https:\/\/www.fjardhundraland.se\/en_us\/plats\/pepparrotsstadens-tradgard-hantverk\/","marker-color":"#f00","marker-size":"small"},"geometry":{"type":"Point","coordinates":[17.07978410121916,59.63642502084555]}},{"type":"Feature","properties":{"name":"H\u00e4rnevi plantskola","id":1498,"link":"https:\/\/www.fjardhundraland.se\/en_us\/plats\/harnevi-plantskola\/","marker-color":"#f00","marker-size":"small"},"geometry":{"type":"Point","coordinates":[17.08361549999995,59.71358670000001]}},{"type":"Feature","properties":{"name":"Svartb\u00e4ckens tr\u00e4dg\u00e5rd","id":4811,"link":"https:\/\/www.fjardhundraland.se\/en_us\/plats\/svartbackens-tradgard\/","marker-color":"#f00","marker-size":"small"},"geometry":{"type":"Point","coordinates":[17.19052388954924,59.82419647217718]}},{"type":"Feature","properties":{"name":"Tuna tr\u00e4dg\u00e5rd","id":4018,"link":"https:\/\/www.fjardhundraland.se\/en_us\/plats\/tuna-tradgard\/","marker-color":"#f00","marker-size":"small"},"geometry":{"type":"Point","coordinates":[17.35213250000004,59.7030591]}},{"type":"Feature","properties":{"name":"S\u00f6rg\u00e5rden gr\u00f6nt","id":1881,"link":"https:\/\/www.fjardhundraland.se\/en_us\/plats\/sorgarden-gront\/","marker-color":"#f00","marker-size":"small"},"geometry":{"type":"Point","coordinates":[17.03507423400879,59.79463221317527]}},{"type":"Feature","properties":{"name":"Sunnansj\u00f6 g\u00e5rd","id":2872,"link":"https:\/\/www.fjardhundraland.se\/en_us\/plats\/sunnansjo-gard\/","marker-color":"#f00","marker-size":"small"},"geometry":{"type":"Point","coordinates":[17.158667899999955,59.86214769999999]}},{"type":"Feature","properties":{"name":"Alsta tr\u00e4dg\u00e5rdar","id":2341,"link":"https:\/\/www.fjardhundraland.se\/en_us\/plats\/alsta-tradgardar\/","marker-color":"#f00","marker-size":"small"},"geometry":{"type":"Point","coordinates":[17.250101566314697,59.75212031158872]}}]}