{"type":"FeatureCollection","features":[{"type":"Feature","properties":{"name":"Hornuddens tr\u00e4dg\u00e5rd","id":5833,"link":"https:\/\/www.fjardhundraland.se\/plats\/hornuddens-tradgard\/","marker-color":"#f00","marker-size":"small"},"geometry":{"type":"Point","coordinates":[17.03254222869873,59.43944594258526]}},{"type":"Feature","properties":{"name":"Orresta Golf &#038; Konferens","id":5666,"link":"https:\/\/www.fjardhundraland.se\/plats\/orresta-golf-konferens\/","marker-color":"#f00","marker-size":"small"},"geometry":{"type":"Point","coordinates":[16.839090103161766,59.66316063770292]}},{"type":"Feature","properties":{"name":"L\u00e5ngtora Mat &#038; Logi","id":5578,"link":"https:\/\/www.fjardhundraland.se\/plats\/langtora-mat-logi\/","marker-color":"#f00","marker-size":"small"},"geometry":{"type":"Point","coordinates":[17.125325202941895,59.724670063660604]}},{"type":"Feature","properties":{"name":"Tallmyra airbnb","id":5555,"link":"https:\/\/www.fjardhundraland.se\/plats\/tallmyra-airbnb\/","marker-color":"#f00","marker-size":"small"},"geometry":{"type":"Point","coordinates":[16.9757090270233,59.664723777544104]}},{"type":"Feature","properties":{"name":"Wiks slott","id":4901,"link":"https:\/\/www.fjardhundraland.se\/plats\/wiks-slott\/","marker-color":"#f00","marker-size":"small"},"geometry":{"type":"Point","coordinates":[17.46173859999999,59.7361893]}},{"type":"Feature","properties":{"name":"\u00d6sterbo F\u00e4bodar","id":4814,"link":"https:\/\/www.fjardhundraland.se\/plats\/osterbo-fabodar\/","marker-color":"#f00","marker-size":"small"},"geometry":{"type":"Point","coordinates":[16.878420499999947,60.19165959999999]}},{"type":"Feature","properties":{"name":"Bl\u00e5sbo","id":3881,"link":"https:\/\/www.fjardhundraland.se\/plats\/blasbo\/","marker-color":"#f00","marker-size":"small"},"geometry":{"type":"Point","coordinates":[16.93941289999998,59.75966510000001]}},{"type":"Feature","properties":{"name":"Working Horses","id":3077,"link":"https:\/\/www.fjardhundraland.se\/plats\/working-horses\/","marker-color":"#f00","marker-size":"small"},"geometry":{"type":"Point","coordinates":[17.19665721904903,59.8304101062783]}},{"type":"Feature","properties":{"name":"Gula Stallet Mat &#038; Rum","id":2304,"link":"https:\/\/www.fjardhundraland.se\/plats\/gula-stallet-butik-kafe\/","marker-color":"#f00","marker-size":"small"},"geometry":{"type":"Point","coordinates":[16.885986000000003,59.599157]}},{"type":"Feature","properties":{"name":"J\u00e4dra G\u00e5rd","id":2507,"link":"https:\/\/www.fjardhundraland.se\/plats\/jadra-gard\/","marker-color":"#f00","marker-size":"small"},"geometry":{"type":"Point","coordinates":[17.056242300000008,59.6712955]}},{"type":"Feature","properties":{"name":"H\u00e5rsb\u00e4cks Bed &#038; Breakfast","id":2298,"link":"https:\/\/www.fjardhundraland.se\/plats\/harsbacks-bed-breakfast\/","marker-color":"#f00","marker-size":"small"},"geometry":{"type":"Point","coordinates":[16.909713099999976,59.8842485]}},{"type":"Feature","properties":{"name":"Brunnbyhus","id":2060,"link":"https:\/\/www.fjardhundraland.se\/plats\/brunnbyhus\/","marker-color":"#f00","marker-size":"small"},"geometry":{"type":"Point","coordinates":[17.01559066772461,59.73404237596355]}},{"type":"Feature","properties":{"name":"Farmor Elsas g\u00e5rdsbageri","id":1011,"link":"https:\/\/www.fjardhundraland.se\/plats\/farmor-elsas-gardsbageri\/","marker-color":"#f00","marker-size":"small"},"geometry":{"type":"Point","coordinates":[16.929252099999985,59.80945]}},{"type":"Feature","properties":{"name":"Rotbrunna h\u00e4st &#038; kursg\u00e5rd","id":1778,"link":"https:\/\/www.fjardhundraland.se\/plats\/rotbrunna-hast-kursgard\/","marker-color":"#f00","marker-size":"small"},"geometry":{"type":"Point","coordinates":[17.063094756066903,59.71688562155776]}},{"type":"Feature","properties":{"name":"Refvelsta Gods","id":1866,"link":"https:\/\/www.fjardhundraland.se\/plats\/refvelsta-fideikomiss\/","marker-color":"#f00","marker-size":"small"},"geometry":{"type":"Point","coordinates":[16.97065830230713,59.80975274714756]}}]}