{"type":"FeatureCollection","features":[{"type":"Feature","properties":{"name":"Ladan &#8211; \u00d6r\u00e5kers kulturcentrum","id":5815,"link":"https:\/\/www.fjardhundraland.se\/plats\/ladan-orakers-kulturcentrum\/","marker-color":"#f00","marker-size":"small"},"geometry":{"type":"Point","coordinates":[17.740302085876465,59.4629599974813]}},{"type":"Feature","properties":{"name":"Pepparrotsstadens Tr\u00e4dg\u00e5rd &#038; Hantverk","id":5614,"link":"https:\/\/www.fjardhundraland.se\/plats\/pepparrotsstadens-tradgard-hantverk\/","marker-color":"#f00","marker-size":"small"},"geometry":{"type":"Point","coordinates":[17.07978410121916,59.63642502084555]}},{"type":"Feature","properties":{"name":"K\u00e4ramik","id":5511,"link":"https:\/\/www.fjardhundraland.se\/plats\/karamik\/","marker-color":"#f00","marker-size":"small"},"geometry":{"type":"Point","coordinates":[17.58769256469725,59.58863287996225]}},{"type":"Feature","properties":{"name":"Landsberga g\u00e5rd","id":2215,"link":"https:\/\/www.fjardhundraland.se\/plats\/landsberga-gard\/","marker-color":"#f00","marker-size":"small"},"geometry":{"type":"Point","coordinates":[17.180767934979258,59.74038840551327]}},{"type":"Feature","properties":{"name":"\u00d6sterby g\u00e5rd","id":5212,"link":"https:\/\/www.fjardhundraland.se\/plats\/osterby-gard\/","marker-color":"#f00","marker-size":"small"},"geometry":{"type":"Point","coordinates":[17.688859699999966,59.6606952]}},{"type":"Feature","properties":{"name":"L\u00f6vlunds ull och skinn","id":5310,"link":"https:\/\/www.fjardhundraland.se\/plats\/lovlunds-ull-och-skinn\/","marker-color":"#f00","marker-size":"small"},"geometry":{"type":"Point","coordinates":[16.96259280000004,59.650362]}},{"type":"Feature","properties":{"name":"Sl\u00e4ndans hantverk","id":4221,"link":"https:\/\/www.fjardhundraland.se\/plats\/slandans-hantverk\/","marker-color":"#f00","marker-size":"small"},"geometry":{"type":"Point","coordinates":[17.009210499999995,59.63111240000001]}},{"type":"Feature","properties":{"name":"\u00c5sg\u00e5rden\u2013Uniki D Sign","id":3854,"link":"https:\/\/www.fjardhundraland.se\/plats\/asgarden-uniki-d-sign\/","marker-color":"#f00","marker-size":"small"},"geometry":{"type":"Point","coordinates":[16.641591800000015,59.8497861]}},{"type":"Feature","properties":{"name":"Dunderbo Ljus och Hantverk","id":1008,"link":"https:\/\/www.fjardhundraland.se\/plats\/dunderbo-ljus-och-hantverk\/","marker-color":"#f00","marker-size":"small"},"geometry":{"type":"Point","coordinates":[16.918586900000037,59.74893299999999]}},{"type":"Feature","properties":{"name":"Siggesta v\u00e4vstuga","id":1882,"link":"https:\/\/www.fjardhundraland.se\/plats\/siggesta-vavstuga\/","marker-color":"#f00","marker-size":"small"},"geometry":{"type":"Point","coordinates":[16.85551643371582,59.76029083511089]}},{"type":"Feature","properties":{"name":"Glada F\u00e5ret","id":1984,"link":"https:\/\/www.fjardhundraland.se\/plats\/glada-faret\/","marker-color":"#f00","marker-size":"small"},"geometry":{"type":"Point","coordinates":[16.83907985687256,59.73298591656932]}},{"type":"Feature","properties":{"name":"Lundellska galleriet","id":1880,"link":"https:\/\/www.fjardhundraland.se\/plats\/lundellska-galleriet\/","marker-color":"#f00","marker-size":"small"},"geometry":{"type":"Point","coordinates":[16.883035898208618,59.77921843574058]}},{"type":"Feature","properties":{"name":"Vreta g\u00e5rd","id":2566,"link":"https:\/\/www.fjardhundraland.se\/plats\/vreta-gard\/","marker-color":"#f00","marker-size":"small"},"geometry":{"type":"Point","coordinates":[16.889311399999997,59.6771469]}}]}