{"type":"FeatureCollection","features":[{"type":"Feature","properties":{"name":"Lata Pigan","id":3759,"link":"https:\/\/www.fjardhundraland.se\/plats\/lata-pigan\/","marker-color":"#f00","marker-size":"small"},"geometry":{"type":"Point","coordinates":[16.9696588,59.6011443]}},{"type":"Feature","properties":{"name":"Broby g\u00e5rd","id":4045,"link":"https:\/\/www.fjardhundraland.se\/plats\/broby-gard\/","marker-color":"#f00","marker-size":"small"},"geometry":{"type":"Point","coordinates":[16.8808642,59.6264016]}},{"type":"Feature","properties":{"name":"Lilla Pr\u00e4stg\u00e5rdsboden","id":4022,"link":"https:\/\/www.fjardhundraland.se\/plats\/lilla-prastgardsboden\/","marker-color":"#f00","marker-size":"small"},"geometry":{"type":"Point","coordinates":[16.7440244,59.8233521]}},{"type":"Feature","properties":{"name":"Butiken i L\u00f6th","id":3230,"link":"https:\/\/www.fjardhundraland.se\/plats\/butiken-i-loth\/","marker-color":"#f00","marker-size":"small"},"geometry":{"type":"Point","coordinates":[16.843572924976,59.683823104141]}},{"type":"Feature","properties":{"name":"Dunderbo Ljus och Hantverk","id":1008,"link":"https:\/\/www.fjardhundraland.se\/plats\/dunderbo-ljus-och-hantverk\/","marker-color":"#f00","marker-size":"small"},"geometry":{"type":"Point","coordinates":[16.9185869,59.748933]}},{"type":"Feature","properties":{"name":"Vreta g\u00e5rd","id":2566,"link":"https:\/\/www.fjardhundraland.se\/plats\/vreta-gard\/","marker-color":"#f00","marker-size":"small"},"geometry":{"type":"Point","coordinates":[16.8893114,59.6771469]}}]}