{"type":"FeatureCollection","features":[{"type":"Feature","properties":{"name":"Uppdrag Kultur","id":5593,"link":"https:\/\/www.fjardhundraland.se\/plats\/uppdrag-kultur\/","marker-color":"#f00","marker-size":"small"},"geometry":{"type":"Point","coordinates":[17.245560711593612,59.62403765753723]}},{"type":"Feature","properties":{"name":"Kvekg\u00e5rden","id":5378,"link":"https:\/\/www.fjardhundraland.se\/plats\/kvekgarden\/","marker-color":"#f00","marker-size":"small"},"geometry":{"type":"Point","coordinates":[17.266702500000065,59.7268431]}},{"type":"Feature","properties":{"name":"Landsberga g\u00e5rd","id":2215,"link":"https:\/\/www.fjardhundraland.se\/plats\/landsberga-gard\/","marker-color":"#f00","marker-size":"small"},"geometry":{"type":"Point","coordinates":[17.180767934979258,59.74038840551327]}},{"type":"Feature","properties":{"name":"Runsten vid Sundet, L\u00e5ngtora by","id":5132,"link":"https:\/\/www.fjardhundraland.se\/plats\/runsten-vid-sundet-langtora-by\/","marker-color":"#f00","marker-size":"small"},"geometry":{"type":"Point","coordinates":[17.135949556250353,59.74307014992559]}},{"type":"Feature","properties":{"name":"Fr\u00f6slunda kyrka","id":4957,"link":"https:\/\/www.fjardhundraland.se\/plats\/froslunda-kyrka\/","marker-color":"#f00","marker-size":"small"},"geometry":{"type":"Point","coordinates":[17.268705368041992,59.72103501468643]}},{"type":"Feature","properties":{"name":"Fittja kyrka","id":4955,"link":"https:\/\/www.fjardhundraland.se\/plats\/fittja-kyrka\/","marker-color":"#f00","marker-size":"small"},"geometry":{"type":"Point","coordinates":[17.429466247558594,59.72109992973928]}},{"type":"Feature","properties":{"name":"Kulla kyrka","id":4953,"link":"https:\/\/www.fjardhundraland.se\/plats\/kulla-kyrka\/","marker-color":"#f00","marker-size":"small"},"geometry":{"type":"Point","coordinates":[17.468347549438477,59.69230856942287]}},{"type":"Feature","properties":{"name":"Gryta kyrka","id":4951,"link":"https:\/\/www.fjardhundraland.se\/plats\/gryta-kyrka\/","marker-color":"#f00","marker-size":"small"},"geometry":{"type":"Point","coordinates":[17.34766960144043,59.74095801985141]}},{"type":"Feature","properties":{"name":"Wiks slott","id":4901,"link":"https:\/\/www.fjardhundraland.se\/plats\/wiks-slott\/","marker-color":"#f00","marker-size":"small"},"geometry":{"type":"Point","coordinates":[17.46173859999999,59.7361893]}},{"type":"Feature","properties":{"name":"H\u00e4rkeberga kyrka","id":1745,"link":"https:\/\/www.fjardhundraland.se\/plats\/harkeberga-kyrka\/","marker-color":"#f00","marker-size":"small"},"geometry":{"type":"Point","coordinates":[17.18783140182495,59.693044897644384]}},{"type":"Feature","properties":{"name":"V\u00e5nsj\u00f6\u00e5sen &#038; V\u00e5nsj\u00f6 kvarn","id":1634,"link":"https:\/\/www.fjardhundraland.se\/plats\/vansjoasen-vansjo-kvarn\/","marker-color":"#f00","marker-size":"small"},"geometry":{"type":"Point","coordinates":[17.09350347518921,59.74035250082166]}},{"type":"Feature","properties":{"name":"Gr\u00f6ns\u00f6\u00f6 slott och park","id":3895,"link":"https:\/\/www.fjardhundraland.se\/plats\/gronsoo-slott-och-park\/","marker-color":"#f00","marker-size":"small"},"geometry":{"type":"Point","coordinates":[17.245873999999958,59.47237800000001]}},{"type":"Feature","properties":{"name":"Gamla Bion","id":3871,"link":"https:\/\/www.fjardhundraland.se\/plats\/gamla-bion\/","marker-color":"#f00","marker-size":"small"},"geometry":{"type":"Point","coordinates":[17.314681892065437,59.738825285956274]}},{"type":"Feature","properties":{"name":"Altunastenen","id":3736,"link":"https:\/\/www.fjardhundraland.se\/plats\/altunastenen\/","marker-color":"#f00","marker-size":"small"},"geometry":{"type":"Point","coordinates":[16.93143367767334,59.81944839567947]}},{"type":"Feature","properties":{"name":"Karleby tingshus","id":3683,"link":"https:\/\/www.fjardhundraland.se\/plats\/karleby-tingshus\/","marker-color":"#f00","marker-size":"small"},"geometry":{"type":"Point","coordinates":[16.885879039764404,59.77458173161579]}},{"type":"Feature","properties":{"name":"Morgong\u00e5va vikingaomr\u00e5de","id":3238,"link":"https:\/\/www.fjardhundraland.se\/plats\/morgongava-vikingaomrade\/","marker-color":"#f00","marker-size":"small"},"geometry":{"type":"Point","coordinates":[16.980809499999964,59.9269523]}},{"type":"Feature","properties":{"name":"Morgong\u00e5vas nya runsten","id":2906,"link":"https:\/\/www.fjardhundraland.se\/plats\/morgongava-nya-runsten\/","marker-color":"#f00","marker-size":"small"},"geometry":{"type":"Point","coordinates":[16.963523626327515,59.932970859696276]}},{"type":"Feature","properties":{"name":"Runstenen i Forsby","id":1815,"link":"https:\/\/www.fjardhundraland.se\/plats\/runstenen-i-forsby\/","marker-color":"#f00","marker-size":"small"},"geometry":{"type":"Point","coordinates":[16.976425051689148,59.77648187719337]}},{"type":"Feature","properties":{"name":"Runstenarna i Brunnby","id":1814,"link":"https:\/\/www.fjardhundraland.se\/plats\/runstenar-i-brunnby\/","marker-color":"#f00","marker-size":"small"},"geometry":{"type":"Point","coordinates":[16.99832797050476,59.736257390505735]}},{"type":"Feature","properties":{"name":"L\u00e5ngtora kyrka","id":1769,"link":"https:\/\/www.fjardhundraland.se\/plats\/langtora-kyrka\/","marker-color":"#f00","marker-size":"small"},"geometry":{"type":"Point","coordinates":[17.142995595932007,59.7170533173102]}},{"type":"Feature","properties":{"name":"Biskopskulla kyrka","id":1768,"link":"https:\/\/www.fjardhundraland.se\/plats\/biskopskulla-kyrka\/","marker-color":"#f00","marker-size":"small"},"geometry":{"type":"Point","coordinates":[17.197691202163696,59.73219855143011]}},{"type":"Feature","properties":{"name":"Litslena kyrka","id":1767,"link":"https:\/\/www.fjardhundraland.se\/plats\/litslena-kyrka\/","marker-color":"#f00","marker-size":"small"},"geometry":{"type":"Point","coordinates":[17.26752519607544,59.66349749453357]}},{"type":"Feature","properties":{"name":"Nys\u00e4tra kyrka","id":1766,"link":"https:\/\/www.fjardhundraland.se\/plats\/nysatra-kyrka\/","marker-color":"#f00","marker-size":"small"},"geometry":{"type":"Point","coordinates":[17.172811031341553,59.75142815982755]}},{"type":"Feature","properties":{"name":"Torstuna kyrka","id":1743,"link":"https:\/\/www.fjardhundraland.se\/plats\/torstuna-kyrka\/","marker-color":"#f00","marker-size":"small"},"geometry":{"type":"Point","coordinates":[17.08361757804869,59.76707408989823]}},{"type":"Feature","properties":{"name":"Fr\u00f6sthults kyrka","id":1741,"link":"https:\/\/www.fjardhundraland.se\/plats\/frosthults-kyrka\/","marker-color":"#f00","marker-size":"small"},"geometry":{"type":"Point","coordinates":[16.951957941055298,59.738914168902035]}},{"type":"Feature","properties":{"name":"Simtuna kyrka","id":1739,"link":"https:\/\/www.fjardhundraland.se\/plats\/simtuna-kyrka\/","marker-color":"#f00","marker-size":"small"},"geometry":{"type":"Point","coordinates":[16.900881063476618,59.77334792605038]}},{"type":"Feature","properties":{"name":"Giresta kyrka","id":1770,"link":"https:\/\/www.fjardhundraland.se\/plats\/giresta-kyrka\/","marker-color":"#f00","marker-size":"small"},"geometry":{"type":"Point","coordinates":[17.345867156982422,59.723780090133644]}},{"type":"Feature","properties":{"name":"Altuna kyrka","id":1673,"link":"https:\/\/www.fjardhundraland.se\/plats\/altuna-kyrka\/","marker-color":"#f00","marker-size":"small"},"geometry":{"type":"Point","coordinates":[16.929931640625,59.81945269376059]}},{"type":"Feature","properties":{"name":"Skutters skans","id":1666,"link":"https:\/\/www.fjardhundraland.se\/plats\/skutters-skans\/","marker-color":"#f00","marker-size":"small"},"geometry":{"type":"Point","coordinates":[16.88246726989746,59.74337998628283]}},{"type":"Feature","properties":{"name":"G\u00e4stre By","id":1651,"link":"https:\/\/www.fjardhundraland.se\/plats\/gastre-by\/","marker-color":"#f00","marker-size":"small"},"geometry":{"type":"Point","coordinates":[16.947097778320312,59.75362815131913]}},{"type":"Feature","properties":{"name":"H\u00e4rnevi kyrka","id":1642,"link":"https:\/\/www.fjardhundraland.se\/plats\/harnevi-kyrka\/","marker-color":"#f00","marker-size":"small"},"geometry":{"type":"Point","coordinates":[17.075328826904297,59.72688768225654]}},{"type":"Feature","properties":{"name":"Pukberget","id":1641,"link":"https:\/\/www.fjardhundraland.se\/plats\/pukberget\/","marker-color":"#f00","marker-size":"small"},"geometry":{"type":"Point","coordinates":[17.163777351379395,59.78981748845372]}},{"type":"Feature","properties":{"name":"Ytterkvarn","id":1636,"link":"https:\/\/www.fjardhundraland.se\/plats\/ytterkvarn\/","marker-color":"#f00","marker-size":"small"},"geometry":{"type":"Point","coordinates":[17.042841911315918,59.83709610909782]}},{"type":"Feature","properties":{"name":"Runstenen vid \u00d6sterunda kyrka","id":975,"link":"https:\/\/www.fjardhundraland.se\/plats\/runstenen-vid-osterunda-kyrka\/","marker-color":"#f00","marker-size":"small"},"geometry":{"type":"Point","coordinates":[17.109656250926264,59.81423169382605]}},{"type":"Feature","properties":{"name":"Altuna hembygdsg\u00e5rd","id":973,"link":"https:\/\/www.fjardhundraland.se\/plats\/altuna-hembygdsgrd\/","marker-color":"#f00","marker-size":"small"},"geometry":{"type":"Point","coordinates":[16.915929699999992,59.81798029999999]}},{"type":"Feature","properties":{"name":"H\u00e4rledg\u00e5rden","id":965,"link":"https:\/\/www.fjardhundraland.se\/plats\/hrledgrden\/","marker-color":"#f00","marker-size":"small"},"geometry":{"type":"Point","coordinates":[17.077341711578356,59.78532843503209]}},{"type":"Feature","properties":{"name":"Dunderbo, Krigsstigen","id":963,"link":"https:\/\/www.fjardhundraland.se\/plats\/dunderbo-krigsstigen\/","marker-color":"#f00","marker-size":"small"},"geometry":{"type":"Point","coordinates":[16.920357157949866,59.746078995357806]}},{"type":"Feature","properties":{"name":"\u00d6sterunda kyrka","id":938,"link":"https:\/\/www.fjardhundraland.se\/plats\/osterunda-kyrka\/","marker-color":"#f00","marker-size":"small"},"geometry":{"type":"Point","coordinates":[17.111667907687433,59.8139768020109]}}]}