{"type":"FeatureCollection","features":[{"type":"Feature","properties":{"name":"Kvarnnibble Butik och Musteri","id":4900,"link":"https:\/\/www.fjardhundraland.se\/en_us\/plats\/kvarnnibble-butik-och-musteri\/","marker-color":"#f00","marker-size":"small"},"geometry":{"type":"Point","coordinates":[17.62539179999999,59.59924179999999]}},{"type":"Feature","properties":{"name":"Landsberga g\u00e5rd","id":2215,"link":"https:\/\/www.fjardhundraland.se\/en_us\/plats\/landsberga-gard\/","marker-color":"#f00","marker-size":"small"},"geometry":{"type":"Point","coordinates":[17.180767934979258,59.74038840551327]}},{"type":"Feature","properties":{"name":"\u00d6sterby g\u00e5rd","id":5212,"link":"https:\/\/www.fjardhundraland.se\/en_us\/plats\/osterby-gard\/","marker-color":"#f00","marker-size":"small"},"geometry":{"type":"Point","coordinates":[17.688859699999966,59.6606952]}},{"type":"Feature","properties":{"name":"Kromsta lantbod","id":1664,"link":"https:\/\/www.fjardhundraland.se\/en_us\/plats\/kromsta-lantbod\/","marker-color":"#f00","marker-size":"small"},"geometry":{"type":"Point","coordinates":[17.246612381219506,59.67402674088364]}},{"type":"Feature","properties":{"name":"H\u00e4rnevi plantskola","id":1498,"link":"https:\/\/www.fjardhundraland.se\/en_us\/plats\/harnevi-plantskola\/","marker-color":"#f00","marker-size":"small"},"geometry":{"type":"Point","coordinates":[17.08361549999995,59.71358670000001]}},{"type":"Feature","properties":{"name":"S\u00f6rg\u00e5rden gr\u00f6nt","id":1881,"link":"https:\/\/www.fjardhundraland.se\/en_us\/plats\/sorgarden-gront\/","marker-color":"#f00","marker-size":"small"},"geometry":{"type":"Point","coordinates":[17.03507423400879,59.79463221317527]}}]}