{"type":"FeatureCollection","features":[{"type":"Feature","properties":{"name":"Franz\u00e9ns charkuterier","id":2312,"link":"https:\/\/www.fjardhundraland.se\/plats\/franzens-charkuterier\/","marker-color":"#f00","marker-size":"small"},"geometry":{"type":"Point","coordinates":[17.230253219604492,59.71707495825027]}},{"type":"Feature","properties":{"name":"H\u00e4rnevi plantskola","id":1498,"link":"https:\/\/www.fjardhundraland.se\/plats\/harnevi-plantskola\/","marker-color":"#f00","marker-size":"small"},"geometry":{"type":"Point","coordinates":[17.08361549999995,59.71358670000001]}},{"type":"Feature","properties":{"name":"Forsby kvarn kaf\u00e9","id":1015,"link":"https:\/\/www.fjardhundraland.se\/plats\/forsby-kvarn-kafe\/","marker-color":"#f00","marker-size":"small"},"geometry":{"type":"Point","coordinates":[16.973118636770664,59.77964280462627]}},{"type":"Feature","properties":{"name":"Gula Stallet Mat &#038; Rum","id":2304,"link":"https:\/\/www.fjardhundraland.se\/plats\/gula-stallet-butik-kafe\/","marker-color":"#f00","marker-size":"small"},"geometry":{"type":"Point","coordinates":[16.885986000000003,59.599157]}},{"type":"Feature","properties":{"name":"Farmor Elsas g\u00e5rdsbageri","id":1011,"link":"https:\/\/www.fjardhundraland.se\/plats\/farmor-elsas-gardsbageri\/","marker-color":"#f00","marker-size":"small"},"geometry":{"type":"Point","coordinates":[16.929252099999985,59.80945]}},{"type":"Feature","properties":{"name":"Vallgarns g\u00e5rdsmejeri","id":1941,"link":"https:\/\/www.fjardhundraland.se\/plats\/vallgarns-gardsmejeri\/","marker-color":"#f00","marker-size":"small"},"geometry":{"type":"Point","coordinates":[17.15713483386844,59.70403358522882]}},{"type":"Feature","properties":{"name":"Dunderbo Ljus och Hantverk","id":1008,"link":"https:\/\/www.fjardhundraland.se\/plats\/dunderbo-ljus-och-hantverk\/","marker-color":"#f00","marker-size":"small"},"geometry":{"type":"Point","coordinates":[16.918586900000037,59.74893299999999]}},{"type":"Feature","properties":{"name":"Rotbrunna h\u00e4st &#038; kursg\u00e5rd","id":1778,"link":"https:\/\/www.fjardhundraland.se\/plats\/rotbrunna-hast-kursgard\/","marker-color":"#f00","marker-size":"small"},"geometry":{"type":"Point","coordinates":[17.063094756066903,59.71688562155776]}},{"type":"Feature","properties":{"name":"Lundellska galleriet","id":1880,"link":"https:\/\/www.fjardhundraland.se\/plats\/lundellska-galleriet\/","marker-color":"#f00","marker-size":"small"},"geometry":{"type":"Point","coordinates":[16.883035898208618,59.77921843574058]}},{"type":"Feature","properties":{"name":"Gyllene Brunnen br\u00f6llopslokal","id":1493,"link":"https:\/\/www.fjardhundraland.se\/plats\/gyllene-brunnen-brollopslokal\/","marker-color":"#f00","marker-size":"small"},"geometry":{"type":"Point","coordinates":[17.016095133204658,59.73430251467617]}},{"type":"Feature","properties":{"name":"Altuna hembygdsg\u00e5rd","id":973,"link":"https:\/\/www.fjardhundraland.se\/plats\/altuna-hembygdsgrd\/","marker-color":"#f00","marker-size":"small"},"geometry":{"type":"Point","coordinates":[16.915929699999992,59.81798029999999]}},{"type":"Feature","properties":{"name":"Dunderbo, Krigsstigen","id":963,"link":"https:\/\/www.fjardhundraland.se\/plats\/dunderbo-krigsstigen\/","marker-color":"#f00","marker-size":"small"},"geometry":{"type":"Point","coordinates":[16.920357157949866,59.746078995357806]}}]}