{"type":"FeatureCollection","features":[{"type":"Feature","properties":{"name":"Gr\u00f6ns\u00f6\u00f6 slott och park","id":3895,"link":"https:\/\/www.fjardhundraland.se\/plats\/gronsoo-slott-och-park\/","marker-color":"#f00","marker-size":"small"},"geometry":{"type":"Point","coordinates":[17.245874,59.472378]}},{"type":"Feature","properties":{"name":"Broby g\u00e5rd","id":4045,"link":"https:\/\/www.fjardhundraland.se\/plats\/broby-gard\/","marker-color":"#f00","marker-size":"small"},"geometry":{"type":"Point","coordinates":[16.8808642,59.6264016]}},{"type":"Feature","properties":{"name":"M\u00e5lhammar galleri","id":3394,"link":"https:\/\/www.fjardhundraland.se\/plats\/malhammar-galleri\/","marker-color":"#f00","marker-size":"small"},"geometry":{"type":"Point","coordinates":[16.8880113,59.5983118]}},{"type":"Feature","properties":{"name":"Lundellska galleriet","id":1880,"link":"https:\/\/www.fjardhundraland.se\/plats\/lundellska-galleriet\/","marker-color":"#f00","marker-size":"small"},"geometry":{"type":"Point","coordinates":[16.883035898209,59.779218435741]}},{"type":"Feature","properties":{"name":"Alsta tr\u00e4dg\u00e5rdar","id":2341,"link":"https:\/\/www.fjardhundraland.se\/plats\/alsta-tradgardar\/","marker-color":"#f00","marker-size":"small"},"geometry":{"type":"Point","coordinates":[17.250101566315,59.752120311589]}}]}