{"type":"FeatureCollection","features":[{"type":"Feature","properties":{"name":"Fr\u00f6slunda ekog\u00e5rd","id":1486,"link":"https:\/\/www.fjardhundraland.se\/plats\/froslunda-ekogard\/","marker-color":"#f00","marker-size":"small"},"geometry":{"type":"Point","coordinates":[16.91101376137692,59.81606259597754]}},{"type":"Feature","properties":{"name":"Resta G\u00e5rd","id":1826,"link":"https:\/\/www.fjardhundraland.se\/plats\/resta-gard\/","marker-color":"#f00","marker-size":"small"},"geometry":{"type":"Point","coordinates":[17.21307630000001,59.7757599]}},{"type":"Feature","properties":{"name":"Kromsta lantbod","id":1664,"link":"https:\/\/www.fjardhundraland.se\/plats\/kromsta-lantbod\/","marker-color":"#f00","marker-size":"small"},"geometry":{"type":"Point","coordinates":[17.246612381219506,59.67402674088364]}},{"type":"Feature","properties":{"name":"H\u00e4rnevi plantskola","id":1498,"link":"https:\/\/www.fjardhundraland.se\/plats\/harnevi-plantskola\/","marker-color":"#f00","marker-size":"small"},"geometry":{"type":"Point","coordinates":[17.08361549999995,59.71358670000001]}},{"type":"Feature","properties":{"name":"Forsby kvarn kaf\u00e9","id":1015,"link":"https:\/\/www.fjardhundraland.se\/plats\/forsby-kvarn-kafe\/","marker-color":"#f00","marker-size":"small"},"geometry":{"type":"Point","coordinates":[16.973118636770664,59.77964280462627]}},{"type":"Feature","properties":{"name":"Skattmans\u00f6backen","id":1602,"link":"https:\/\/www.fjardhundraland.se\/plats\/skattmansobacken\/","marker-color":"#f00","marker-size":"small"},"geometry":{"type":"Point","coordinates":[17.060587406158447,59.831839650757864]}},{"type":"Feature","properties":{"name":"Caf\u00e9 Samt","id":1818,"link":"https:\/\/www.fjardhundraland.se\/plats\/cafe-samt\/","marker-color":"#f00","marker-size":"small"},"geometry":{"type":"Point","coordinates":[17.0799753,59.6365828]}},{"type":"Feature","properties":{"name":"M\u00e4lby tr\u00e4dg\u00e5rd","id":1729,"link":"https:\/\/www.fjardhundraland.se\/plats\/malby-tradgard\/","marker-color":"#f00","marker-size":"small"},"geometry":{"type":"Point","coordinates":[16.94325630000003,59.74055920000001]}},{"type":"Feature","properties":{"name":"S\u00f6rg\u00e5rden gr\u00f6nt","id":1881,"link":"https:\/\/www.fjardhundraland.se\/plats\/sorgarden-gront\/","marker-color":"#f00","marker-size":"small"},"geometry":{"type":"Point","coordinates":[17.03507423400879,59.79463221317527]}},{"type":"Feature","properties":{"name":"Skogsbackens ost","id":1855,"link":"https:\/\/www.fjardhundraland.se\/plats\/skogsbackens-ost\/","marker-color":"#f00","marker-size":"small"},"geometry":{"type":"Point","coordinates":[17.409323200000017,59.71785320000001]}},{"type":"Feature","properties":{"name":"Farmor Elsas g\u00e5rdsbageri","id":1011,"link":"https:\/\/www.fjardhundraland.se\/plats\/farmor-elsas-gardsbageri\/","marker-color":"#f00","marker-size":"small"},"geometry":{"type":"Point","coordinates":[16.929252099999985,59.80945]}},{"type":"Feature","properties":{"name":"Vallgarns g\u00e5rdsmejeri","id":1941,"link":"https:\/\/www.fjardhundraland.se\/plats\/vallgarns-gardsmejeri\/","marker-color":"#f00","marker-size":"small"},"geometry":{"type":"Point","coordinates":[17.15713483386844,59.70403358522882]}},{"type":"Feature","properties":{"name":"\u00d6sterundag\u00e5rden","id":1879,"link":"https:\/\/www.fjardhundraland.se\/plats\/osterundagarden\/","marker-color":"#f00","marker-size":"small"},"geometry":{"type":"Point","coordinates":[17.103266716003418,59.81356732057409]}},{"type":"Feature","properties":{"name":"Dunderbo Ljus och Hantverk","id":1008,"link":"https:\/\/www.fjardhundraland.se\/plats\/dunderbo-ljus-och-hantverk\/","marker-color":"#f00","marker-size":"small"},"geometry":{"type":"Point","coordinates":[16.918586900000037,59.74893299999999]}},{"type":"Feature","properties":{"name":"Refvelsta Gods","id":1866,"link":"https:\/\/www.fjardhundraland.se\/plats\/refvelsta-fideikomiss\/","marker-color":"#f00","marker-size":"small"},"geometry":{"type":"Point","coordinates":[16.97065830230713,59.80975274714756]}},{"type":"Feature","properties":{"name":"Lundellska galleriet","id":1880,"link":"https:\/\/www.fjardhundraland.se\/plats\/lundellska-galleriet\/","marker-color":"#f00","marker-size":"small"},"geometry":{"type":"Point","coordinates":[16.883035898208618,59.77921843574058]}},{"type":"Feature","properties":{"name":"Gyllene Brunnen br\u00f6llopslokal","id":1493,"link":"https:\/\/www.fjardhundraland.se\/plats\/gyllene-brunnen-brollopslokal\/","marker-color":"#f00","marker-size":"small"},"geometry":{"type":"Point","coordinates":[17.016095133204658,59.73430251467617]}},{"type":"Feature","properties":{"name":"Domta-grisen","id":1004,"link":"https:\/\/www.fjardhundraland.se\/plats\/domta-grisen\/","marker-color":"#f00","marker-size":"small"},"geometry":{"type":"Point","coordinates":[17.13270127773285,59.80606561319527]}}]}