{"type":"FeatureCollection","features":[{"type":"Feature","properties":{"name":"Landsberga g\u00e5rd","id":2215,"link":"https:\/\/www.fjardhundraland.se\/plats\/landsberga-gard\/","marker-color":"#f00","marker-size":"small"},"geometry":{"type":"Point","coordinates":[17.180767934979258,59.74038840551327]}},{"type":"Feature","properties":{"name":"Salnecke slottscaf\u00e9 ost &#038; deli","id":4405,"link":"https:\/\/www.fjardhundraland.se\/plats\/salnecke-slottscafe\/","marker-color":"#f00","marker-size":"small"},"geometry":{"type":"Point","coordinates":[17.33693397962338,59.739464303563]}},{"type":"Feature","properties":{"name":"Wiks slott","id":4901,"link":"https:\/\/www.fjardhundraland.se\/plats\/wiks-slott\/","marker-color":"#f00","marker-size":"small"},"geometry":{"type":"Point","coordinates":[17.46173859999999,59.7361893]}},{"type":"Feature","properties":{"name":"Gr\u00f6ns\u00f6\u00f6 slott och park","id":3895,"link":"https:\/\/www.fjardhundraland.se\/plats\/gronsoo-slott-och-park\/","marker-color":"#f00","marker-size":"small"},"geometry":{"type":"Point","coordinates":[17.245873999999958,59.47237800000001]}},{"type":"Feature","properties":{"name":"M\u00e5lhammar galleri","id":3394,"link":"https:\/\/www.fjardhundraland.se\/plats\/malhammar-galleri\/","marker-color":"#f00","marker-size":"small"},"geometry":{"type":"Point","coordinates":[16.888011300000016,59.5983118]}}]}