{"type":"FeatureCollection","features":[{"type":"Feature","properties":{"name":"Hornuddens tr\u00e4dg\u00e5rd","id":5833,"link":"https:\/\/www.fjardhundraland.se\/en_us\/plats\/hornuddens-tradgard\/","marker-color":"#f00","marker-size":"small"},"geometry":{"type":"Point","coordinates":[17.03254222869873,59.43944594258526]}},{"type":"Feature","properties":{"name":"Orresta Golf &#038; Konferens","id":5666,"link":"https:\/\/www.fjardhundraland.se\/en_us\/plats\/orresta-golf-konferens\/","marker-color":"#f00","marker-size":"small"},"geometry":{"type":"Point","coordinates":[16.839090103161766,59.66316063770292]}},{"type":"Feature","properties":{"name":"Tibble gamla skola","id":5600,"link":"https:\/\/www.fjardhundraland.se\/en_us\/plats\/tibble-gamla-skola\/","marker-color":"#f00","marker-size":"small"},"geometry":{"type":"Point","coordinates":[17.0406098664065,59.80029336739542]}},{"type":"Feature","properties":{"name":"L\u00e5ngtora Mat &#038; Logi","id":5578,"link":"https:\/\/www.fjardhundraland.se\/en_us\/plats\/langtora-mat-logi\/","marker-color":"#f00","marker-size":"small"},"geometry":{"type":"Point","coordinates":[17.125325202941895,59.724670063660604]}},{"type":"Feature","properties":{"name":"Wiks slott","id":4901,"link":"https:\/\/www.fjardhundraland.se\/en_us\/plats\/wiks-slott\/","marker-color":"#f00","marker-size":"small"},"geometry":{"type":"Point","coordinates":[17.46173859999999,59.7361893]}},{"type":"Feature","properties":{"name":"S\u00e4fsta bygdeg\u00e5rd","id":4320,"link":"https:\/\/www.fjardhundraland.se\/en_us\/plats\/safsta-bygdegard\/","marker-color":"#f00","marker-size":"small"},"geometry":{"type":"Point","coordinates":[17.057919500000025,59.6745414]}},{"type":"Feature","properties":{"name":"Altunag\u00e5rden","id":3333,"link":"https:\/\/www.fjardhundraland.se\/en_us\/plats\/altunagarden\/","marker-color":"#f00","marker-size":"small"},"geometry":{"type":"Point","coordinates":[16.927571296691895,59.835694468001336]}},{"type":"Feature","properties":{"name":"\u00d6sterundag\u00e5rden","id":1879,"link":"https:\/\/www.fjardhundraland.se\/en_us\/plats\/osterundagarden\/","marker-color":"#f00","marker-size":"small"},"geometry":{"type":"Point","coordinates":[17.103266716003418,59.81356732057409]}},{"type":"Feature","properties":{"name":"Gyllene Brunnen br\u00f6llopslokal","id":1493,"link":"https:\/\/www.fjardhundraland.se\/en_us\/plats\/gyllene-brunnen-brollopslokal\/","marker-color":"#f00","marker-size":"small"},"geometry":{"type":"Point","coordinates":[17.016095133204658,59.73430251467617]}}]}