{"type":"FeatureCollection","features":[{"type":"Feature","properties":{"name":"Forsby kvarn caf\u00e9","id":776,"link":"https:\/\/www.fjardhundraland.se\/en\/plats\/forsby-kvarn-cafe\/","marker-color":"#f00","marker-size":"small"},"geometry":{"type":"Point","coordinates":[16.9731802,59.77963949999999]}},{"type":"Feature","properties":{"name":"Landsberga farm shop and caf\u00e9","id":774,"link":"https:\/\/www.fjardhundraland.se\/en\/plats\/landsberga-gard\/","marker-color":"#f00","marker-size":"small"},"geometry":{"type":"Point","coordinates":[17.180752799999937,59.7403386]}},{"type":"Feature","properties":{"name":"Hj\u00e4lstaviken","id":627,"link":"https:\/\/www.fjardhundraland.se\/en\/plats\/hjalstaviken\/","marker-color":"#f00","marker-size":"small"},"geometry":{"type":"Point","coordinates":[17.38655,59.65417]}},{"type":"Feature","properties":{"name":"Gula Stallet \u2013 \u201dYellow Stable\u201d Food and B&#038;B","id":531,"link":"https:\/\/www.fjardhundraland.se\/en\/plats\/gula-stallet-yellow-stable-cafe-bnb\/","marker-color":"#f00","marker-size":"small"},"geometry":{"type":"Point","coordinates":[16.88603599999999,59.59910199999999]}},{"type":"Feature","properties":{"name":"Meet the Moose at G\u00e5rdsj\u00f6","id":463,"link":"https:\/\/www.fjardhundraland.se\/en\/plats\/gardsjo-moose\/","marker-color":"#f00","marker-size":"small"},"geometry":{"type":"Point","coordinates":[16.96956990000001,59.9625935]}},{"type":"Feature","properties":{"name":"Salnecke Castle Caf\u00e9","id":380,"link":"https:\/\/www.fjardhundraland.se\/en\/plats\/salnecke-castle-cafe\/","marker-color":"#f00","marker-size":"small"},"geometry":{"type":"Point","coordinates":[17.336912521951263,59.739437270489425]}},{"type":"Feature","properties":{"name":"H\u00e4rkeberga church","id":194,"link":"https:\/\/www.fjardhundraland.se\/en\/plats\/harkeberga-church\/","marker-color":"#f00","marker-size":"small"},"geometry":{"type":"Point","coordinates":[17.187799199999972,59.693034]}}]}