{"type":"FeatureCollection","features":[{"type":"Feature","properties":{"name":"Landsberga g\u00e5rd","id":2215,"link":"https:\/\/www.fjardhundraland.se\/plats\/landsberga-gard\/","marker-color":"#f00","marker-size":"small"},"geometry":{"type":"Point","coordinates":[17.180767934979258,59.74038840551327]}},{"type":"Feature","properties":{"name":"Salnecke slottscaf\u00e9 ost &#038; deli","id":4405,"link":"https:\/\/www.fjardhundraland.se\/plats\/salnecke-slottscafe\/","marker-color":"#f00","marker-size":"small"},"geometry":{"type":"Point","coordinates":[17.33693397962338,59.739464303563]}},{"type":"Feature","properties":{"name":"Fr\u00f6slunda ekog\u00e5rd","id":1486,"link":"https:\/\/www.fjardhundraland.se\/plats\/froslunda-ekogard\/","marker-color":"#f00","marker-size":"small"},"geometry":{"type":"Point","coordinates":[16.91101376137692,59.81606259597754]}},{"type":"Feature","properties":{"name":"Sme&#8217;n i Fr\u00f6sthult","id":4512,"link":"https:\/\/www.fjardhundraland.se\/plats\/smen-i-frosthult\/","marker-color":"#f00","marker-size":"small"},"geometry":{"type":"Point","coordinates":[16.954795718193054,59.736784040904226]}},{"type":"Feature","properties":{"name":"Resta G\u00e5rd","id":1826,"link":"https:\/\/www.fjardhundraland.se\/plats\/resta-gard\/","marker-color":"#f00","marker-size":"small"},"geometry":{"type":"Point","coordinates":[17.21307630000001,59.7757599]}},{"type":"Feature","properties":{"name":"Franz\u00e9ns charkuterier","id":2312,"link":"https:\/\/www.fjardhundraland.se\/plats\/franzens-charkuterier\/","marker-color":"#f00","marker-size":"small"},"geometry":{"type":"Point","coordinates":[17.230253219604492,59.71707495825027]}},{"type":"Feature","properties":{"name":"H\u00e4rnevi plantskola","id":1498,"link":"https:\/\/www.fjardhundraland.se\/plats\/harnevi-plantskola\/","marker-color":"#f00","marker-size":"small"},"geometry":{"type":"Point","coordinates":[17.08361549999995,59.71358670000001]}},{"type":"Feature","properties":{"name":"G\u00e5rdsj\u00f6 \u00e4lgpark","id":4044,"link":"https:\/\/www.fjardhundraland.se\/plats\/gardsjo-algpark\/","marker-color":"#f00","marker-size":"small"},"geometry":{"type":"Point","coordinates":[16.969569800000045,59.9625935]}},{"type":"Feature","properties":{"name":"Gr\u00f6ns\u00f6\u00f6 slott och park","id":3895,"link":"https:\/\/www.fjardhundraland.se\/plats\/gronsoo-slott-och-park\/","marker-color":"#f00","marker-size":"small"},"geometry":{"type":"Point","coordinates":[17.245873999999958,59.47237800000001]}},{"type":"Feature","properties":{"name":"Karleby tingshus","id":3683,"link":"https:\/\/www.fjardhundraland.se\/plats\/karleby-tingshus\/","marker-color":"#f00","marker-size":"small"},"geometry":{"type":"Point","coordinates":[16.885879039764404,59.77458173161579]}},{"type":"Feature","properties":{"name":"Tuna tr\u00e4dg\u00e5rd","id":4018,"link":"https:\/\/www.fjardhundraland.se\/plats\/tuna-tradgard\/","marker-color":"#f00","marker-size":"small"},"geometry":{"type":"Point","coordinates":[17.35213250000004,59.7030591]}},{"type":"Feature","properties":{"name":"Bj\u00f6rnbo G\u00e5rd 4H","id":3337,"link":"https:\/\/www.fjardhundraland.se\/plats\/bjornbo-gard-4h\/","marker-color":"#f00","marker-size":"small"},"geometry":{"type":"Point","coordinates":[17.131805,59.679702]}},{"type":"Feature","properties":{"name":"Altunag\u00e5rden","id":3333,"link":"https:\/\/www.fjardhundraland.se\/plats\/altunagarden\/","marker-color":"#f00","marker-size":"small"},"geometry":{"type":"Point","coordinates":[16.927571296691895,59.835694468001336]}},{"type":"Feature","properties":{"name":"Teda Art Project","id":3220,"link":"https:\/\/www.fjardhundraland.se\/plats\/teda-art-project\/","marker-color":"#f00","marker-size":"small"},"geometry":{"type":"Point","coordinates":[16.90379580000001,59.6013454]}},{"type":"Feature","properties":{"name":"Morgong\u00e5va vikingaomr\u00e5de","id":3238,"link":"https:\/\/www.fjardhundraland.se\/plats\/morgongava-vikingaomrade\/","marker-color":"#f00","marker-size":"small"},"geometry":{"type":"Point","coordinates":[16.980809499999964,59.9269523]}},{"type":"Feature","properties":{"name":"Gula Stallet Mat &#038; Rum","id":2304,"link":"https:\/\/www.fjardhundraland.se\/plats\/gula-stallet-butik-kafe\/","marker-color":"#f00","marker-size":"small"},"geometry":{"type":"Point","coordinates":[16.885986000000003,59.599157]}},{"type":"Feature","properties":{"name":"J\u00e4dra G\u00e5rd","id":2507,"link":"https:\/\/www.fjardhundraland.se\/plats\/jadra-gard\/","marker-color":"#f00","marker-size":"small"},"geometry":{"type":"Point","coordinates":[17.056242300000008,59.6712955]}},{"type":"Feature","properties":{"name":"Glada Kossan","id":2882,"link":"https:\/\/www.fjardhundraland.se\/plats\/glada-kossan\/","marker-color":"#f00","marker-size":"small"},"geometry":{"type":"Point","coordinates":[16.839899699999933,59.7353353]}},{"type":"Feature","properties":{"name":"Pekoe ekologiskt te","id":1582,"link":"https:\/\/www.fjardhundraland.se\/plats\/pekoe-ekologiskt-te\/","marker-color":"#f00","marker-size":"small"},"geometry":{"type":"Point","coordinates":[17.108475,59.814161]}},{"type":"Feature","properties":{"name":"S\u00f6rg\u00e5rden gr\u00f6nt","id":1881,"link":"https:\/\/www.fjardhundraland.se\/plats\/sorgarden-gront\/","marker-color":"#f00","marker-size":"small"},"geometry":{"type":"Point","coordinates":[17.03507423400879,59.79463221317527]}},{"type":"Feature","properties":{"name":"Farmor Elsas g\u00e5rdsbageri","id":1011,"link":"https:\/\/www.fjardhundraland.se\/plats\/farmor-elsas-gardsbageri\/","marker-color":"#f00","marker-size":"small"},"geometry":{"type":"Point","coordinates":[16.929252099999985,59.80945]}},{"type":"Feature","properties":{"name":"Vallgarns g\u00e5rdsmejeri","id":1941,"link":"https:\/\/www.fjardhundraland.se\/plats\/vallgarns-gardsmejeri\/","marker-color":"#f00","marker-size":"small"},"geometry":{"type":"Point","coordinates":[17.15713483386844,59.70403358522882]}},{"type":"Feature","properties":{"name":"Dunderbo Ljus och Hantverk","id":1008,"link":"https:\/\/www.fjardhundraland.se\/plats\/dunderbo-ljus-och-hantverk\/","marker-color":"#f00","marker-size":"small"},"geometry":{"type":"Point","coordinates":[16.918586900000037,59.74893299999999]}},{"type":"Feature","properties":{"name":"Rotbrunna h\u00e4st &#038; kursg\u00e5rd","id":1778,"link":"https:\/\/www.fjardhundraland.se\/plats\/rotbrunna-hast-kursgard\/","marker-color":"#f00","marker-size":"small"},"geometry":{"type":"Point","coordinates":[17.063094756066903,59.71688562155776]}},{"type":"Feature","properties":{"name":"Siggesta v\u00e4vstuga","id":1882,"link":"https:\/\/www.fjardhundraland.se\/plats\/siggesta-vavstuga\/","marker-color":"#f00","marker-size":"small"},"geometry":{"type":"Point","coordinates":[16.85551643371582,59.76029083511089]}},{"type":"Feature","properties":{"name":"Glada F\u00e5ret","id":1984,"link":"https:\/\/www.fjardhundraland.se\/plats\/glada-faret\/","marker-color":"#f00","marker-size":"small"},"geometry":{"type":"Point","coordinates":[16.83907985687256,59.73298591656932]}},{"type":"Feature","properties":{"name":"Gyllene Brunnen br\u00f6llopslokal","id":1493,"link":"https:\/\/www.fjardhundraland.se\/plats\/gyllene-brunnen-brollopslokal\/","marker-color":"#f00","marker-size":"small"},"geometry":{"type":"Point","coordinates":[17.016095133204658,59.73430251467617]}},{"type":"Feature","properties":{"name":"VildaVingar Fj\u00e4rilstr\u00e4dg\u00e5rd","id":3272,"link":"https:\/\/www.fjardhundraland.se\/plats\/vildavingar-fjarilstradgard\/","marker-color":"#f00","marker-size":"small"},"geometry":{"type":"Point","coordinates":[16.85648130000004,59.72937869999999]}},{"type":"Feature","properties":{"name":"Alsta tr\u00e4dg\u00e5rdar","id":2341,"link":"https:\/\/www.fjardhundraland.se\/plats\/alsta-tradgardar\/","marker-color":"#f00","marker-size":"small"},"geometry":{"type":"Point","coordinates":[17.250101566314697,59.75212031158872]}},{"type":"Feature","properties":{"name":"Altuna hembygdsg\u00e5rd","id":973,"link":"https:\/\/www.fjardhundraland.se\/plats\/altuna-hembygdsgrd\/","marker-color":"#f00","marker-size":"small"},"geometry":{"type":"Point","coordinates":[16.915929699999992,59.81798029999999]}},{"type":"Feature","properties":{"name":"H\u00e4rledg\u00e5rden","id":965,"link":"https:\/\/www.fjardhundraland.se\/plats\/hrledgrden\/","marker-color":"#f00","marker-size":"small"},"geometry":{"type":"Point","coordinates":[17.077341711578356,59.78532843503209]}},{"type":"Feature","properties":{"name":"Dunderbo, Krigsstigen","id":963,"link":"https:\/\/www.fjardhundraland.se\/plats\/dunderbo-krigsstigen\/","marker-color":"#f00","marker-size":"small"},"geometry":{"type":"Point","coordinates":[16.920357157949866,59.746078995357806]}},{"type":"Feature","properties":{"name":"\u00d6sterunda kyrka","id":938,"link":"https:\/\/www.fjardhundraland.se\/plats\/osterunda-kyrka\/","marker-color":"#f00","marker-size":"small"},"geometry":{"type":"Point","coordinates":[17.111667907687433,59.8139768020109]}}]}