{"type":"FeatureCollection","features":[{"type":"Feature","properties":{"name":"Landsberga g\u00e5rd","id":2215,"link":"https:\/\/www.fjardhundraland.se\/en_us\/plats\/landsberga-gard\/","marker-color":"#f00","marker-size":"small"},"geometry":{"type":"Point","coordinates":[17.180767934979258,59.74038840551327]}},{"type":"Feature","properties":{"name":"Fr\u00f6slunda ekog\u00e5rd","id":1486,"link":"https:\/\/www.fjardhundraland.se\/en_us\/plats\/froslunda-ekogard\/","marker-color":"#f00","marker-size":"small"},"geometry":{"type":"Point","coordinates":[16.91101376137692,59.81606259597754]}},{"type":"Feature","properties":{"name":"Resta G\u00e5rd","id":1826,"link":"https:\/\/www.fjardhundraland.se\/en_us\/plats\/resta-gard\/","marker-color":"#f00","marker-size":"small"},"geometry":{"type":"Point","coordinates":[17.21307630000001,59.7757599]}},{"type":"Feature","properties":{"name":"Franz\u00e9ns charkuterier","id":2312,"link":"https:\/\/www.fjardhundraland.se\/en_us\/plats\/franzens-charkuterier\/","marker-color":"#f00","marker-size":"small"},"geometry":{"type":"Point","coordinates":[17.230253219604492,59.71707495825027]}},{"type":"Feature","properties":{"name":"H\u00e4rnevi plantskola","id":1498,"link":"https:\/\/www.fjardhundraland.se\/en_us\/plats\/harnevi-plantskola\/","marker-color":"#f00","marker-size":"small"},"geometry":{"type":"Point","coordinates":[17.08361549999995,59.71358670000001]}},{"type":"Feature","properties":{"name":"Altunag\u00e5rden","id":3333,"link":"https:\/\/www.fjardhundraland.se\/en_us\/plats\/altunagarden\/","marker-color":"#f00","marker-size":"small"},"geometry":{"type":"Point","coordinates":[16.927571296691895,59.835694468001336]}},{"type":"Feature","properties":{"name":"Teda Art Project","id":3220,"link":"https:\/\/www.fjardhundraland.se\/en_us\/plats\/teda-art-project\/","marker-color":"#f00","marker-size":"small"},"geometry":{"type":"Point","coordinates":[16.90379580000001,59.6013454]}},{"type":"Feature","properties":{"name":"Gula Stallet Mat &#038; Rum","id":2304,"link":"https:\/\/www.fjardhundraland.se\/en_us\/plats\/gula-stallet-butik-kafe\/","marker-color":"#f00","marker-size":"small"},"geometry":{"type":"Point","coordinates":[16.885986000000003,59.599157]}},{"type":"Feature","properties":{"name":"H\u00e5rsb\u00e4cks Bed &#038; Breakfast","id":2298,"link":"https:\/\/www.fjardhundraland.se\/en_us\/plats\/harsbacks-bed-breakfast\/","marker-color":"#f00","marker-size":"small"},"geometry":{"type":"Point","coordinates":[16.909713099999976,59.8842485]}},{"type":"Feature","properties":{"name":"M\u00e4lby tr\u00e4dg\u00e5rd","id":1729,"link":"https:\/\/www.fjardhundraland.se\/en_us\/plats\/malby-tradgard\/","marker-color":"#f00","marker-size":"small"},"geometry":{"type":"Point","coordinates":[16.94325630000003,59.74055920000001]}},{"type":"Feature","properties":{"name":"Pekoe ekologiskt te","id":1582,"link":"https:\/\/www.fjardhundraland.se\/en_us\/plats\/pekoe-ekologiskt-te\/","marker-color":"#f00","marker-size":"small"},"geometry":{"type":"Point","coordinates":[17.108475,59.814161]}},{"type":"Feature","properties":{"name":"S\u00f6rg\u00e5rden gr\u00f6nt","id":1881,"link":"https:\/\/www.fjardhundraland.se\/en_us\/plats\/sorgarden-gront\/","marker-color":"#f00","marker-size":"small"},"geometry":{"type":"Point","coordinates":[17.03507423400879,59.79463221317527]}},{"type":"Feature","properties":{"name":"Skogsbackens ost","id":1855,"link":"https:\/\/www.fjardhundraland.se\/en_us\/plats\/skogsbackens-ost\/","marker-color":"#f00","marker-size":"small"},"geometry":{"type":"Point","coordinates":[17.409323200000017,59.71785320000001]}},{"type":"Feature","properties":{"name":"Farmor Elsas g\u00e5rdsbageri","id":1011,"link":"https:\/\/www.fjardhundraland.se\/en_us\/plats\/farmor-elsas-gardsbageri\/","marker-color":"#f00","marker-size":"small"},"geometry":{"type":"Point","coordinates":[16.929252099999985,59.80945]}},{"type":"Feature","properties":{"name":"Vallgarns g\u00e5rdsmejeri","id":1941,"link":"https:\/\/www.fjardhundraland.se\/en_us\/plats\/vallgarns-gardsmejeri\/","marker-color":"#f00","marker-size":"small"},"geometry":{"type":"Point","coordinates":[17.15713483386844,59.70403358522882]}},{"type":"Feature","properties":{"name":"Dunderbo Ljus och Hantverk","id":1008,"link":"https:\/\/www.fjardhundraland.se\/en_us\/plats\/dunderbo-ljus-och-hantverk\/","marker-color":"#f00","marker-size":"small"},"geometry":{"type":"Point","coordinates":[16.918586900000037,59.74893299999999]}},{"type":"Feature","properties":{"name":"Rotbrunna h\u00e4st &#038; kursg\u00e5rd","id":1778,"link":"https:\/\/www.fjardhundraland.se\/en_us\/plats\/rotbrunna-hast-kursgard\/","marker-color":"#f00","marker-size":"small"},"geometry":{"type":"Point","coordinates":[17.063094756066903,59.71688562155776]}},{"type":"Feature","properties":{"name":"Glada F\u00e5ret","id":1984,"link":"https:\/\/www.fjardhundraland.se\/en_us\/plats\/glada-faret\/","marker-color":"#f00","marker-size":"small"},"geometry":{"type":"Point","coordinates":[16.83907985687256,59.73298591656932]}},{"type":"Feature","properties":{"name":"Lundellska galleriet","id":1880,"link":"https:\/\/www.fjardhundraland.se\/en_us\/plats\/lundellska-galleriet\/","marker-color":"#f00","marker-size":"small"},"geometry":{"type":"Point","coordinates":[16.883035898208618,59.77921843574058]}},{"type":"Feature","properties":{"name":"Gyllene Brunnen br\u00f6llopslokal","id":1493,"link":"https:\/\/www.fjardhundraland.se\/en_us\/plats\/gyllene-brunnen-brollopslokal\/","marker-color":"#f00","marker-size":"small"},"geometry":{"type":"Point","coordinates":[17.016095133204658,59.73430251467617]}},{"type":"Feature","properties":{"name":"VildaVingar Fj\u00e4rilstr\u00e4dg\u00e5rd","id":3272,"link":"https:\/\/www.fjardhundraland.se\/en_us\/plats\/vildavingar-fjarilstradgard\/","marker-color":"#f00","marker-size":"small"},"geometry":{"type":"Point","coordinates":[16.85648130000004,59.72937869999999]}},{"type":"Feature","properties":{"name":"Altuna hembygdsg\u00e5rd","id":973,"link":"https:\/\/www.fjardhundraland.se\/en_us\/plats\/altuna-hembygdsgrd\/","marker-color":"#f00","marker-size":"small"},"geometry":{"type":"Point","coordinates":[16.915929699999992,59.81798029999999]}},{"type":"Feature","properties":{"name":"H\u00e4rledg\u00e5rden","id":965,"link":"https:\/\/www.fjardhundraland.se\/en_us\/plats\/hrledgrden\/","marker-color":"#f00","marker-size":"small"},"geometry":{"type":"Point","coordinates":[17.077341711578356,59.78532843503209]}},{"type":"Feature","properties":{"name":"Dunderbo, Krigsstigen","id":963,"link":"https:\/\/www.fjardhundraland.se\/en_us\/plats\/dunderbo-krigsstigen\/","marker-color":"#f00","marker-size":"small"},"geometry":{"type":"Point","coordinates":[16.920357157949866,59.746078995357806]}}]}