{"type":"FeatureCollection","features":[{"type":"Feature","properties":{"name":"Runsten vid Sundet, L\u00e5ngtora by","id":5132,"link":"https:\/\/www.fjardhundraland.se\/en_us\/plats\/runsten-vid-sundet-langtora-by\/","marker-color":"#f00","marker-size":"small"},"geometry":{"type":"Point","coordinates":[17.135949556250353,59.74307014992559]}},{"type":"Feature","properties":{"name":"Altunastenen","id":3736,"link":"https:\/\/www.fjardhundraland.se\/en_us\/plats\/altunastenen\/","marker-color":"#f00","marker-size":"small"},"geometry":{"type":"Point","coordinates":[16.93143367767334,59.81944839567947]}},{"type":"Feature","properties":{"name":"\u00c4s\u00e5sen","id":3699,"link":"https:\/\/www.fjardhundraland.se\/en_us\/plats\/asasen\/","marker-color":"#f00","marker-size":"small"},"geometry":{"type":"Point","coordinates":[17.093396186828613,59.7139757654329]}},{"type":"Feature","properties":{"name":"Morgong\u00e5va vikingaomr\u00e5de","id":3238,"link":"https:\/\/www.fjardhundraland.se\/en_us\/plats\/morgongava-vikingaomrade\/","marker-color":"#f00","marker-size":"small"},"geometry":{"type":"Point","coordinates":[16.980809499999964,59.9269523]}},{"type":"Feature","properties":{"name":"Morgong\u00e5vas nya runsten","id":2906,"link":"https:\/\/www.fjardhundraland.se\/en_us\/plats\/morgongava-nya-runsten\/","marker-color":"#f00","marker-size":"small"},"geometry":{"type":"Point","coordinates":[16.963523626327515,59.932970859696276]}},{"type":"Feature","properties":{"name":"Runstenen i Forsby","id":1815,"link":"https:\/\/www.fjardhundraland.se\/en_us\/plats\/runstenen-i-forsby\/","marker-color":"#f00","marker-size":"small"},"geometry":{"type":"Point","coordinates":[16.976425051689148,59.77648187719337]}},{"type":"Feature","properties":{"name":"Runstenarna i Brunnby","id":1814,"link":"https:\/\/www.fjardhundraland.se\/en_us\/plats\/runstenar-i-brunnby\/","marker-color":"#f00","marker-size":"small"},"geometry":{"type":"Point","coordinates":[16.99832797050476,59.736257390505735]}},{"type":"Feature","properties":{"name":"Skutters skans","id":1666,"link":"https:\/\/www.fjardhundraland.se\/en_us\/plats\/skutters-skans\/","marker-color":"#f00","marker-size":"small"},"geometry":{"type":"Point","coordinates":[16.88246726989746,59.74337998628283]}},{"type":"Feature","properties":{"name":"Runstenen vid \u00d6sterunda kyrka","id":975,"link":"https:\/\/www.fjardhundraland.se\/en_us\/plats\/runstenen-vid-osterunda-kyrka\/","marker-color":"#f00","marker-size":"small"},"geometry":{"type":"Point","coordinates":[17.109656250926264,59.81423169382605]}}]}